[{"id":"p1","title":"Forest Waterfall","image":{"src":"forest-waterfall.jpg","alt":"A tranquil forest with a cascading waterfall amidst greenery."},"lat":44.5588,"lon":-80.344},{"id":"p3","title":"Himalayan Peaks","image":{"src":"majestic-mountains.jpg","alt":"The sun setting behind snow-capped peaks of majestic mountains."},"lat":27.9881,"lon":86.925},{"id":"p18","title":"Amazon River","image":{"src":"amazon-river.jpg","alt":"Navigating the waters of the Amazon River, surrounded by dense rainforest."},"lat":-3.4653,"lon":-58.38},{"id":"p17","title":"Machu Picchu","image":{"src":"machu-picchu.jpg","alt":"The historic Incan citadel of Machu Picchu illuminated by the morning sun."},"lat":-13.1631,"lon":-72.545},{"id":"p16","title":"Victoria Falls","image":{"src":"victoria-falls.jpg","alt":"The powerful cascade of Victoria Falls, a natural wonder between Zambia and Zimbabwe."},"lat":-17.9243,"lon":25.8572}]